name,country,subcountry,geonameid,lat,lng
Udomlya,Russia,Tverskaya,452949,57.876779,35.00511
Sosnovka,Russia,St.-Petersburg,461698,56.253352,51.283364
Sasovo,Russia,Rjazan,461699,54.349928,41.924087
Zyuzino,Russia,Moscow,461740,55.678753,38.120862
Zyablikovo,Russia,Moscow,461835,58.786994,36.710175
Zverevo,Russia,Rostov,461910,48.028358,40.123073
Zvenigorod,Russia,MO,461920,55.729686,36.855325
Zlatoust,Russia,Chelyabinsk,462444,55.173108,59.672425
Zimovniki,Russia,Rostov,462522,47.14537,42.467711
Zhulebino,Russia,Moscow,462745,0.0,0.0
Zhukovskiy,Russia,MO,462755,55.597475,38.119802
Zhukovka,Russia,Brjansk,462822,53.533062,33.732547
Zhirnovsk,Russia,Volgograd,462984,50.978713,44.778834
Zhigulevsk,Russia,Samara,463082,53.401714,49.494657
Zherdevka,Russia,Tambov,463217,51.842282,41.461796
Zheleznovodsk,Russia,Stavropol'skiy,463340,44.132058,43.030533
Zheleznogorsk,Russia,Kursk,463343,52.337971,35.351743
Zheleznodorozhnyy,Russia,MO,463355,43.045809,58.84752
Zernograd,Russia,Rostov,463637,46.849564,40.312815
Zelenokumsk,Russia,Stavropol'skiy,463824,44.403288,43.884148
Zelenograd,Russia,Moscow,463829,55.991893,37.214382
Zelenodolsk,Russia,Tatarstan,463835,55.846906,48.500617
Zelenchukskaya,Russia,Karachayevo-Cherkesiya,463885,43.860894,41.582835
Zavolzh’ye,Russia,Nizjnij Novgorod,464101,56.182677,47.251447
Zarechnyy,Russia,Penza,464625,0.0,0.0
Zaraysk,Russia,MO,464687,54.756973,38.874845
Zapolyarnyy,Russia,Murmansk,464790,69.426103,30.820739
Zamoskvorech’ye,Russia,Moscow,465057,15.24556,97.850367
Zainsk,Russia,Tatarstan,465543,55.298984,52.006391
Yur’yev-Pol’skiy,Russia,Vladimir,466215,50.17218,1.527468
Yoshkar-Ola,Russia,Mariy-El,466806,56.631595,47.886178
Yeysk,Russia,Krasnodarskiy,466885,46.711524,38.276451
Yessentukskaya,Russia,Stavropol'skiy,466989,44.026652,42.876373
Yessentuki,Russia,Stavropol'skiy,466990,44.044526,42.85891
Yershov,Russia,Saratov,467120,51.352068,48.283494
Yemva,Russia,Komi Republic,467525,62.598375,50.886569
Yelizavetinskaya,Russia,Krasnodarskiy,467854,45.048444,38.799935
Yelets,Russia,Lipetsk,467978,52.62419,38.503653
Yelan’,Russia,Volgograd,468063,50.950094,43.734677
Yelabuga,Russia,Tatarstan,468082,55.75667,52.05446
Yegor’yevsk,Russia,MO,468250,65.428918,53.595394
Yegorlykskaya,Russia,Rostov,468307,46.565222,40.660858
Yefremov,Russia,Tula,468390,53.137598,38.117673
Yasnyy,Russia,Orenburg,468657,0.0,0.0
Yasnogorsk,Russia,Tula,468671,54.479555,37.689689
Yasenevo,Russia,Moscow,468809,45.184143,38.995283
Yartsevo,Russia,Smolensk,468866,55.068705,32.689675
Yaroslavl,Russia,Jaroslavl,468902,57.626578,39.893858
Yaransk,Russia,Kirov,469005,57.304228,47.885855
Yanaul,Russia,Bashkortostan,469178,56.264957,54.929824
Yagry,Russia,Arkhangelskaya,469707,0.0,0.0
Yablonovskiy,Russia,Adygeya,469844,49.27482,41.394575
Vyshniy Volochëk,Russia,Tverskaya,470252,57.589051,34.560336
Vyselki,Russia,Krasnodarskiy,470338,45.580039,39.65541
Vyksa,Russia,Nizjnij Novgorod,470444,55.320683,42.167961
Vykhino-Zhulebino,Russia,Moscow,470451,0.0,0.0
Vyborg,Russia,Leningrad,470546,60.710232,28.749404
Vyazniki,Russia,Vladimir,470666,56.247021,42.158862
Vyaz’ma,Russia,Smolensk,470676,49.193252,119.729249
Vyatskiye Polyany,Russia,Kirov,470734,56.222896,51.074919
Vsevolozhsk,Russia,Leningrad,471101,60.021317,30.654084
Votkinsk,Russia,Udmurtiya,471430,57.051806,53.987392
Vostryakovo,Russia,MO,471456,55.386108,37.840417
Vostryakovo,Russia,MO,471457,55.386108,37.840417
Voskresensk,Russia,MO,471656,55.322978,38.673353
Voronezh,Russia,Voronezj,472045,51.660781,39.200269
Altuf’yevskiy,Russia,Moscow,472072,55.879849,37.582278
Vorob’yovo,Russia,Moscow,472079,0.0,0.0
Volzhskiy,Russia,Volgograd,472231,48.786293,44.751867
Volzhsk,Russia,Mariy-El,472234,55.862267,48.372041
Vol’sk,Russia,Saratov,472278,48.856663,2.351556
Volokolamsk,Russia,MO,472433,56.035728,35.958537
Vologda,Russia,Vologda,472459,59.220496,39.891523
Volkhov,Russia,Leningrad,472722,59.900538,32.352672
Nagornyy,Russia,Moscow,472732,52.981709,49.710217
Volgorechensk,Russia,Kostroma,472750,57.439464,41.157456
Volgograd,Russia,Volgograd,472757,48.707073,44.51693
Volgodonsk,Russia,Rostov,472761,47.516545,42.198423
Vnukovo,Russia,Moscow,473021,55.608475,37.2924
Novovladykino,Russia,Moscow,473127,0.0,0.0
Vladimir,Russia,Vladimir,473247,56.129057,40.406635
Vladikavkaz,Russia,North Ossetia,473249,43.02115,44.68196
Vidnoye,Russia,MO,473778,55.557174,37.708644
Vichuga,Russia,Ivanovo,473788,57.217138,41.918149
Veshnyaki,Russia,Moscow,473972,58.833464,37.223113
Vereshchagino,Russia,Perm,475777,58.079761,54.658083
Venëv,Russia,Tula,475881,54.336287,38.030887
Vel’sk,Russia,Arkhangelskaya,475938,30.04773,30.987988
Velikiy Ustyug,Russia,Vologda,476062,60.760356,46.305485
Velikiye Luki,Russia,Pskov,476077,56.342316,30.521969
Vatutino,Russia,Moscow,476368,49.01036,31.045911
Valuyki,Russia,Belgorod,477192,50.211194,38.099914
Valday,Russia,Novgorod,477301,57.980199,33.246667
Vagonoremont,Russia,Moscow,477377,0.0,0.0
Uzlovaya,Russia,Tula,477494,53.97844,38.160299
Uvarovo,Russia,Tambov,477626,51.983099,42.261
Uva,Russia,Udmurtiya,477656,-27.258883,-52.307785
Ust’-Labinsk,Russia,Krasnodarskiy,478044,45.21365,39.691216
Ust’-Katav,Russia,Chelyabinsk,478071,54.930289,58.1747
Ust’-Dzheguta,Russia,Karachayevo-Cherkesiya,478130,44.083895,41.971042
Usman’,Russia,Lipetsk,478317,52.043386,39.736069
Uryupinsk,Russia,Volgograd,478544,50.799754,42.015194
Urus-Martan,Russia,Chechnya,478581,43.127617,45.540614
Uritsk,Russia,St.-Petersburg,478724,0.0,0.0
Unecha,Russia,Brjansk,479028,52.845115,32.670676
Ulyanovsk,Russia,Ulyanovsk,479123,54.314192,48.403123
Ukhta,Russia,Komi Republic,479411,63.562626,53.684022
Uglich,Russia,Jaroslavl,479532,57.526592,38.319372
Ufa,Russia,Bashkortostan,479561,54.735147,55.958727
Uchkeken,Russia,Karachayevo-Cherkesiya,479687,43.939015,42.515493
Uchaly,Russia,Bashkortostan,479703,54.319176,59.378631
Uchaly,Russia,Bashkortostan,479704,54.319176,59.378631
Tyrnyauz,Russia,Kabardino-Balkariya,479933,43.398084,42.921423
Tver,Russia,Tverskaya,480060,56.859847,35.911995
Tuymazy,Russia,Bashkortostan,480089,54.599988,53.695008
Tutayev,Russia,Jaroslavl,480122,57.8688,39.530759
Tula,Russia,Tula,480562,54.193122,37.617348
Tuchkovo,Russia,MO,480685,55.614139,36.401146
Tuapse,Russia,Krasnodarskiy,480716,44.09564,39.073553
Tsimlyansk,Russia,Rostov,480876,47.647714,42.09306
Trubchevsk,Russia,Brjansk,481350,52.579077,33.766073
Troparëvo,Russia,Moscow,481453,0.0,0.0
Troitskaya,Russia,Ingushetiya,481605,53.448626,28.546753
Troitsk,Russia,Moscow,481608,55.484842,37.305561
Tosno,Russia,Leningrad,481964,59.540664,30.877719
Torzhok,Russia,Tverskaya,481985,57.041338,34.96014
Tomilino,Russia,MO,482260,55.663126,37.949931
Tol’yatti,Russia,Samara,482283,34.787052,67.581013
Timashëvsk,Russia,Krasnodarskiy,482965,45.615877,38.935069
Tikhvin,Russia,Leningrad,483019,59.644209,33.542096
Tikhoretsk,Russia,Krasnodarskiy,483029,45.85468,40.125929
Teykovo,Russia,Ivanovo,483137,56.85436,40.535471
Terek,Russia,Kabardino-Balkariya,483495,43.483865,44.140267
Tyoply Stan,Russia,Moscow,483551,54.103589,42.732858
Temryuk,Russia,Krasnodarskiy,483661,45.27841,37.370194
Tekstil’shchiki,Russia,Moscow,483826,41.006441,69.001331
Tbilisskaya,Russia,Krasnodarskiy,483883,45.364528,40.201765
Tambov,Russia,Tambov,484646,52.721219,41.452274
Agidel’,Russia,Bashkortostan,484856,55.899835,53.92204
Taganrog,Russia,Rostov,484907,47.220983,38.9173
Taganskiy,Russia,Moscow,484912,55.713461,38.350714
Syzran’,Russia,Samara,484972,53.155782,48.474485
Syktyvkar,Russia,Komi Republic,485239,61.668793,50.836399
Svobody,Russia,Stavropol'skiy,485432,44.024773,43.051464
Sviblovo,Russia,Moscow,485630,56.345614,38.370882
Svetogorsk,Russia,Leningrad,485639,61.111193,28.87268
Svetlyy,Russia,Kaliningrad,485660,54.67737,20.135719
Svetlograd,Russia,Stavropol'skiy,485698,45.328573,42.856628
Suvorovskaya,Russia,Stavropol'skiy,485871,44.197529,42.649962
Suvorov,Russia,Tula,485888,54.122083,36.490339
Surovikino,Russia,Volgograd,486071,48.605493,42.844195
Surkhakhi,Russia,Ingushetiya,486110,43.184867,44.902846
Sukhinichi,Russia,Kaluga,486665,54.101752,35.339319
Stupino,Russia,MO,486968,54.88688,38.07839
Strunino,Russia,Vladimir,487095,56.37493,38.584079
Stroitel’,Russia,Belgorod,487147,50.784551,36.488686
Strogino,Russia,Moscow,487150,55.784541,36.381796
Sterlitamak,Russia,Bashkortostan,487495,53.630403,55.930825
Stavropol’,Russia,Stavropol'skiy,487846,45.044521,41.969083
Staryy Oskol,Russia,Belgorod,487928,49.580332,37.651511
Staroshcherbinovskaya,Russia,Krasnodarskiy,488635,46.629713,38.667335
Starominskaya,Russia,Krasnodarskiy,488742,46.533019,39.053628
Starodub,Russia,Brjansk,488852,52.585277,32.760346
Staraya Russa,Russia,Novgorod,489088,57.990715,31.355452
Staraya Kupavna,Russia,MO,489162,55.810648,38.175624
Staraya Derevnya,Russia,St.-Petersburg,489226,53.635144,24.418895
Sovetsk,Russia,Kirov,490067,55.081029,21.888647
Sovetsk,Russia,Kaliningrad,490068,55.081029,21.888647
Sosnovyy Bor,Russia,Leningrad,490172,59.90422,29.09221
Sosnovaya Polyana,Russia,St.-Petersburg,490377,60.264715,30.497328
Sosnogorsk,Russia,Komi Republic,490391,63.59911,53.876441
Sortavala,Russia,Republic of Karelia,490466,61.703306,30.691723
Sorochinsk,Russia,Orenburg,490554,52.429092,53.151016
Solntsevo,Russia,Moscow,490971,51.416339,36.755046
Solnechnogorsk,Russia,MO,490996,56.185102,36.977631
Sol’-Iletsk,Russia,Orenburg,491019,51.16185,54.980336
Solikamsk,Russia,Perm,491023,59.648333,56.771029
Sokol’niki,Russia,Moscow,491250,57.413878,42.152897
Sokol,Russia,Moscow,491280,59.460968,40.099977
Sokol,Russia,Vologda,491281,59.460968,40.099977
Sofrino,Russia,MO,491352,56.131506,37.936393
Sochi,Russia,Krasnodarskiy,491422,43.585525,39.723062
Sobinka,Russia,Vladimir,491480,55.993837,40.017943
Smolensk,Russia,Smolensk,491687,54.782635,32.045251
Slobodskoy,Russia,Kirov,491882,58.731886,50.183674
Slobodka,Russia,Moscow,491895,53.513041,28.555053
Slavyansk-na-Kubani,Russia,Krasnodarskiy,492094,45.260325,38.12822
Slantsy,Russia,Leningrad,492162,59.11779,28.088136
Skopin,Russia,Rjazan,492376,53.82359,39.549328
Skhodnya,Russia,MO,492448,55.954113,37.272197
Sim,Russia,Chelyabinsk,492944,54.990716,57.689969
Sibay,Russia,Bashkortostan,493160,52.72051,58.666429
Shuya,Russia,Ivanovo,493231,56.852037,41.385556
Shushary,Russia,St.-Petersburg,493316,59.80722,30.379514
Shumerlya,Russia,Chuvashia,493463,55.497934,46.417846
Mikhaylovsk,Russia,Stavropol'skiy,493702,45.129667,42.028803
Shilovo,Russia,Rjazan,494427,42.478098,21.501697
Sheksna,Russia,Vologda,495062,58.048454,38.858406
Shebekino,Russia,Belgorod,495112,50.404344,36.87931
Shchukino,Russia,Moscow,495136,57.623976,39.48349
Shchigry,Russia,Kursk,495206,51.87619,36.912
Shcherbinka,Russia,Moscow,495260,55.508738,37.563287
Shchelkovo,Russia,MO,495344,55.920875,37.991622
Shchëkino,Russia,Tula,495394,51.55301,34.491498
Shatura,Russia,MO,495518,55.561232,39.563521
Shar’ya,Russia,Kostroma,495619,34.390948,68.858687
Shali,Russia,Chechnya,495957,43.1488,45.900991
Shakhun’ya,Russia,Nizjnij Novgorod,496012,-6.523098,35.114165
Shakhty,Russia,Rostov,496015,47.709601,40.215797
Severskaya,Russia,Krasnodarskiy,496267,44.853759,38.681941
Severo-Zadonsk,Russia,Tula,496269,53.012954,139.266834
Severoural’sk,Russia,Sverdlovsk,496275,49.193252,119.729249
Severomorsk,Russia,Murmansk,496278,69.070337,33.423958
Severodvinsk,Russia,Arkhangelskaya,496285,64.562501,39.818175
Severnyy,Russia,Moscow,496348,8.242548,124.261465
Setun’,Russia,Moscow,496456,55.646569,36.668134
Sestroretsk,Russia,St.-Petersburg,496478,60.092411,29.956066
Sertolovo,Russia,Leningrad,496519,60.141613,30.211879
Serpukhov,Russia,MO,496527,54.913536,37.416763
Sergiyev Posad,Russia,MO,496638,56.315291,38.135999
Sergach,Russia,Nizjnij Novgorod,496802,55.520105,45.481361
Serdobsk,Russia,Penza,496934,52.455683,44.202735
Semiluki,Russia,Voronezj,497206,51.695255,39.018953
Semikarakorsk,Russia,Rostov,497218,47.517792,40.811505
Semënovskoye,Russia,MO,497271,56.587927,37.753748
Semënov,Russia,Nizjnij Novgorod,497450,57.368065,43.900848
Sel’tso,Russia,Brjansk,497610,0.0,0.0
Segezha,Russia,Republic of Karelia,497927,63.743701,34.312617
Satka,Russia,Chelyabinsk,498418,55.040492,59.028881
Sarov,Russia,Nizjnij Novgorod,498525,54.922788,43.344844
Saratov,Russia,Saratov,498677,51.533103,46.034158
Sarapul,Russia,Udmurtiya,498687,56.461621,53.803678
Saransk,Russia,Mordoviya,498698,54.187433,45.183938
Saraktash,Russia,Orenburg,498708,51.7831,56.36526
Saint Petersburg,Russia,St.-Petersburg,498817,59.939095,30.315868
Samara,Russia,Samara,499099,53.195538,50.101783
Sal’sk,Russia,Rostov,499161,41.264683,36.334131
Salavat,Russia,Bashkortostan,499292,53.361651,55.924672
Safonovo,Russia,Smolensk,499452,55.106304,33.237917
Rzhev,Russia,Tverskaya,499717,56.262877,34.329065
Rybnoye,Russia,Rjazan,499975,54.730806,39.505463
Rybinsk,Russia,Jaroslavl,500004,58.048454,38.858406
Rybatskoye,Russia,Leningrad,500019,47.008409,37.452219
Ryazhsk,Russia,Rjazan,500047,53.708949,40.062894
Ryazan’,Russia,Rjazan,500096,54.629216,39.736375
Ruzayevka,Russia,Mordoviya,500299,54.058268,44.94911
Rublëvo,Russia,Moscow,500843,58.490088,49.437488
Rtishchevo,Russia,Saratov,500886,52.257455,43.785657
Rostov-na-Donu,Russia,Rostov,501175,47.222078,39.720349
Rostov,Russia,Jaroslavl,501183,47.222078,39.720349
Rostokino,Russia,Moscow,501187,56.386159,38.517666
Rossosh’,Russia,Voronezj,501215,50.192899,39.57652
Rossosh’,Russia,Voronezj,501231,50.192899,39.57652
Roslavl’,Russia,Smolensk,501283,53.947309,32.85678
Roshal’,Russia,MO,501320,55.663283,39.862759
Rodniki,Russia,Ivanovo,501730,57.107152,41.733366
Revda,Russia,Sverdlovsk,502011,56.800079,59.908718
Reutov,Russia,MO,502018,55.760515,37.855141
Razumnoye,Russia,Belgorod,502400,50.533631,36.689559
Rayevskiy,Russia,Bashkortostan,502540,54.064974,54.932905
Rasskazovo,Russia,Tambov,502793,52.653842,41.874302
Ramenki,Russia,Moscow,502971,54.816006,39.597064
Pyatigorsk,Russia,Stavropol'skiy,503550,44.03929,43.07084
Pushkino,Russia,MO,503977,56.011182,37.847047
Pushkin,Russia,St.-Petersburg,504003,59.722463,30.416947
Pushchino,Russia,MO,504042,54.832479,37.620977
Pugachev,Russia,Saratov,504250,52.014871,48.795588
Pskov,Russia,Pskov,504341,57.81925,28.332065
Protvino,Russia,MO,504576,54.870621,37.218316
Proletarsk,Russia,Rostov,504831,46.703849,41.727544
Prokhladnyy,Russia,Kabardino-Balkariya,504935,43.758962,44.010083
Priyutovo,Russia,Bashkortostan,505014,53.895217,53.936889
Privolzhskiy,Russia,Saratov,505057,51.410957,46.048082
Privolzhsk,Russia,Ivanovo,505060,57.380662,41.28083
Priozërsk,Russia,Leningrad,505230,61.036554,30.119838
Primorsko-Akhtarsk,Russia,Krasnodarskiy,505259,46.043502,38.177645
Pridonskoy,Russia,Voronezj,505421,0.0,0.0
Povorino,Russia,Voronezj,505806,51.190773,42.245576
Kotlovka,Russia,Moscow,506043,54.680478,50.636919
Annino,Russia,Moscow,506117,52.646423,33.859443
Polyarnyye Zori,Russia,Murmansk,506762,67.365788,32.500966
Polyarnyy,Russia,Murmansk,506763,69.197402,33.437226
Pokrovskoye-Streshnëvo,Russia,Moscow,507338,0.0,0.0
Pokrov,Russia,Vladimir,507599,55.916633,39.173374
Pokhvistnevo,Russia,Samara,507624,53.653282,52.122346
Podporozh’ye,Russia,Leningrad,508034,15.24556,97.850367
Podol’sk,Russia,MO,508101,54.510741,30.429586
Pochep,Russia,Brjansk,508656,52.92913,33.454267
Ryazanskiy,Russia,Moscow,508751,54.629216,39.736375
Plavsk,Russia,Tula,509052,53.706843,37.291987
Pikalëvo,Russia,Leningrad,509598,59.513113,34.177303
Petushki,Russia,Vladimir,509697,55.930967,39.4599
Petrozavodsk,Russia,Republic of Karelia,509820,61.785017,34.346878
Petrovskaya,Russia,MO,509981,45.430202,37.960765
Petrovsk,Russia,Saratov,509987,52.314023,45.389931
Petrodvorets,Russia,St.-Petersburg,510225,59.884027,29.908572
Peterhof,Russia,St.-Petersburg,510291,59.884027,29.908572
Pestovo,Russia,Novgorod,510364,58.599071,35.798098
Pervoural’sk,Russia,Sverdlovsk,510808,56.905839,59.943249
Perovo,Russia,Moscow,511153,41.014471,20.989343
Perm,Russia,Perm,511196,58.010374,56.229398
Pereslavl’-Zalesskiy,Russia,Jaroslavl,511359,56.739613,38.85298
Novo-Peredelkino,Russia,Moscow,511510,0.0,0.0
Penza,Russia,Penza,511565,53.195063,45.018316
Pechora,Russia,Komi Republic,511794,65.148602,57.223977
Pavlovskiy Posad,Russia,MO,512023,55.779393,38.651318
Pavlovskaya,Russia,Krasnodarskiy,512051,46.130536,39.790965
Pavlovsk,Russia,St.-Petersburg,512052,59.686411,30.431598
Pavlovsk,Russia,Voronezj,512053,59.686411,30.431598
Pashkovskiy,Russia,Krasnodarskiy,512382,45.013944,39.133641
Pallasovka,Russia,Volgograd,513042,50.050167,46.880398
Ozëry,Russia,MO,513378,54.854087,38.559824
Ozerki,Russia,St.-Petersburg,513471,56.583475,95.932643
Otradnyy,Russia,Samara,513883,53.376555,51.348851
Otradnoye,Russia,Moscow,513896,59.774086,30.794544
Otradnoye,Russia,Leningrad,513898,59.774086,30.794544
Otradnaya,Russia,Krasnodarskiy,513911,44.39317,41.515614
Ostrov,Russia,Pskov,514171,57.345188,28.343806
Ostrogozhsk,Russia,Voronezj,514198,50.860139,39.082365
Ostashkov,Russia,Tverskaya,514259,57.142872,33.115441
Ostankinskiy,Russia,Moscow,514284,0.0,0.0
Osa,Russia,Perm,514706,57.279672,55.468723
Orsk,Russia,Orenburg,514734,51.229362,58.475196
Orlovskiy,Russia,Rostov,514796,46.872887,42.053022
Orenburg,Russia,Orenburg,515003,51.768199,55.096955
Orël,Russia,Orjol,515012,52.970371,36.063837
Orekhovo-Zuyevo,Russia,MO,515024,55.805837,38.981592
Orekhovo-Borisovo Severnoye,Russia,Moscow,515027,56.567524,2.744964
Ordzhonikidzevskaya,Russia,Ingushetiya,515083,43.320353,45.047682
Onega,Russia,Arkhangelskaya,515246,63.914485,38.086646
Omutninsk,Russia,Kirov,515267,58.66406,52.177152
Olenegorsk,Russia,Murmansk,515698,68.140457,33.270095
Tsotsin-Yurt,Russia,Chechnya,515804,49.193252,119.729249
Oktyabr’skiy,Russia,Bashkortostan,515879,45.001435,38.931421
Odintsovo,Russia,MO,516215,55.678859,37.263986
Ochër,Russia,Perm,516256,45.804114,3.374243
Ochakovo-Matveyevskoye,Russia,Moscow,516264,0.0,0.0
Obninsk,Russia,Kaluga,516436,55.11201,36.586531
Nytva,Russia,Perm,516576,57.939127,55.328622
Nyandoma,Russia,Arkhangelskaya,516647,61.669822,40.204388
Nurlat,Russia,Tatarstan,516716,54.428117,50.804958
Novyy Oskol,Russia,Belgorod,516931,50.760542,37.864816
Novyye Kuz’minki,Russia,Moscow,517121,51.137148,29.262126
Novyye Cherëmushki,Russia,Moscow,517161,53.119475,25.738673
Novozybkov,Russia,Brjansk,517269,52.536717,31.933222
Novovoronezh,Russia,Voronezj,517716,51.309213,39.216277
Novouzensk,Russia,Saratov,517739,50.466326,48.132119
Novoul’yanovsk,Russia,Ulyanovsk,517766,49.193252,119.729249
Novotroitsk,Russia,Orenburg,517836,51.196417,58.301767
Novotitarovskaya,Russia,Krasnodarskiy,517842,45.237665,38.976544
Novoshakhtinsk,Russia,Rostov,517963,47.754315,39.934696
Novorossiysk,Russia,Krasnodarskiy,518255,44.723912,37.768974
Novopokrovskaya,Russia,Krasnodarskiy,518325,45.953825,40.707004
Novopavlovsk,Russia,Stavropol'skiy,518383,43.957369,43.631901
Novomoskovsk,Russia,Tula,518557,54.010993,38.290896
Novomichurinsk,Russia,Rjazan,518602,54.034574,39.750865
Novokuz’minki,Russia,Moscow,518657,51.137148,29.262126
Novokuybyshevsk,Russia,Samara,518659,53.099469,49.947767
Novokubansk,Russia,Krasnodarskiy,518682,45.103793,41.043927
Novokhovrino,Russia,Moscow,518740,0.0,0.0
Novogireyevo,Russia,MO,518879,56.557822,37.532466
Novodvinsk,Russia,Arkhangelskaya,518909,64.413683,40.820821
Novocherkassk,Russia,Rostov,518970,47.422052,40.093725
Novocheboksarsk,Russia,Chuvashia,518976,56.109551,47.479125
Novoanninskiy,Russia,Volgograd,519062,50.529658,42.66667
Novoaleksandrovsk,Russia,Stavropol'skiy,519106,55.729681,26.243464
Velikiy Novgorod,Russia,Novgorod,519336,58.52281,31.269915
Novaya Usman’,Russia,Voronezj,519447,51.643972,39.412864
Novaya Derevnya,Russia,St.-Petersburg,519711,51.025435,16.730323
Noginsk,Russia,MO,520068,55.854522,38.441831
Nizhnyaya Tura,Russia,Sverdlovsk,520204,58.631082,59.85234
Nizhniy Tagil,Russia,Sverdlovsk,520494,57.907605,59.972211
Nizhniy Novgorod,Russia,Nizjnij Novgorod,520555,56.326887,44.005986
Nizhniy Lomov,Russia,Penza,520574,53.530043,43.67299
Nizhnekamsk,Russia,Tatarstan,521118,55.63407,51.809112
Nikulino,Russia,Moscow,521416,56.112367,38.071446
Nikol’skoye,Russia,Moscow,521500,45.047234,-0.190847
Nikol’skoye,Russia,Leningrad,521509,45.047234,-0.190847
Nikol’sk,Russia,Penza,521776,39.761976,46.752118
Nikolayevsk,Russia,Volgograd,521874,53.21448,63.632073
Nikel’,Russia,Murmansk,522260,69.410035,30.210065
Nezlobnaya,Russia,Stavropol'skiy,522301,44.116845,43.408517
Nevinnomyssk,Russia,Stavropol'skiy,522377,44.638287,41.936061
Nevel’,Russia,Pskov,522410,56.017483,29.917241
Nesterovskaya,Russia,Ingushetiya,522470,61.79982,40.844941
Nerekhta,Russia,Kostroma,522594,57.454414,40.572446
Nelidovo,Russia,Tverskaya,522775,56.223296,32.776587
Neftekamsk,Russia,Bashkortostan,522942,56.088408,54.248236
Neftegorsk,Russia,Samara,522945,52.797221,51.163799
Nazran’,Russia,Ingushetiya,523064,43.225727,44.764641
Navashino,Russia,Nizjnij Novgorod,523198,55.543888,42.18874
Nar'yan-Mar,Russia,Nenetskiy Avtonomnyy Okrug,523392,67.63805,53.006926
Nartkala,Russia,Kabardino-Balkariya,523405,43.556734,43.862022
Naro-Fominsk,Russia,MO,523426,55.386185,36.734484
Nal’chik,Russia,Kabardino-Balkariya,523523,43.499725,43.6032
Nakhabino,Russia,MO,523553,55.848751,37.187782
Naberezhnyye Chelny,Russia,Tatarstan,523750,55.740776,52.406384
Mytishchi,Russia,MO,523812,55.910483,37.736402
Murom,Russia,Vladimir,524294,55.579169,42.052411
Murmansk,Russia,Murmansk,524305,68.970682,33.074981
Mtsensk,Russia,Orjol,524640,53.278939,36.575006
Mozhga,Russia,Udmurtiya,524699,56.442802,52.213839
Mozhaysk,Russia,MO,524712,55.506714,36.017358
Mozdok,Russia,North Ossetia,524736,43.735413,44.653878
Mostovskoy,Russia,Krasnodarskiy,524809,44.414357,40.790278
Moscow,Russia,Moscow,524901,55.755814,37.617635
Morshansk,Russia,Tambov,525138,53.443611,41.811627
Morozovsk,Russia,Rostov,525162,48.351157,41.830878
Monino,Russia,MO,525396,55.839289,38.195342
Monchegorsk,Russia,Murmansk,525404,67.938917,32.937062
Mirnyy,Russia,Arkhangelskaya,526346,0.0,0.0
Mineralnye Vody,Russia,Stavropol'skiy,526480,44.208799,43.13834
Millerovo,Russia,Rostov,526558,48.92173,40.394849
Mikhaylovka,Russia,Volgograd,527012,50.070847,43.239723
Mikhalkovo,Russia,Moscow,527057,54.320284,21.300583
Michurinsk,Russia,Tambov,527191,52.893913,40.498011
Metallostroy,Russia,St.-Petersburg,527361,59.807803,30.573514
Menzelinsk,Russia,Tatarstan,527529,55.719972,53.101429
Mendeleyevsk,Russia,Tatarstan,527579,55.895186,52.314397
Meleuz,Russia,Bashkortostan,527717,52.958964,55.92831
Melenki,Russia,Vladimir,527740,55.338715,41.63403
Medvezh’yegorsk,Russia,Republic of Karelia,527888,49.193252,119.729249
Medvedovskaya,Russia,Krasnodarskiy,527968,45.449212,39.010123
Medvedevo,Russia,Mariy-El,528056,54.202292,31.123427
Mednogorsk,Russia,Orenburg,528109,51.403794,57.58324
Maykop,Russia,Adygeya,528293,44.608865,40.098548
Matveyevskoye,Russia,Moscow,528454,56.525966,35.760386
Marks,Russia,Saratov,529073,51.713333,46.740009
Mar’ino,Russia,Moscow,529237,41.888091,-87.628841
Mar’ina Roshcha,Russia,Moscow,529334,55.796931,37.614374
Manturovo,Russia,Kostroma,529505,58.328617,44.757292
Yaroslavskiy,Russia,Moscow,530088,44.185359,132.225003
Maloyaroslavets,Russia,Kaluga,530849,55.011897,36.462555
Malgobek,Russia,Ingushetiya,531129,43.509645,44.590188
Malakhovka,Russia,MO,531820,55.64258,38.009373
Makhachkala,Russia,Dagestan,532096,42.98306,47.504682
Magnitogorsk,Russia,Chelyabinsk,532288,53.407158,58.980282
Lyudinovo,Russia,Kaluga,532459,53.864533,34.447723
Lyublino,Russia,Moscow,532535,46.915185,141.995493
Lyubertsy,Russia,MO,532615,55.676494,37.898116
Lytkarino,Russia,MO,532657,55.579297,37.908986
Lys’va,Russia,Perm,532675,58.100413,57.811655
Lyskovo,Russia,Nizjnij Novgorod,532715,56.021357,45.040962
Luzhniki,Russia,Moscow,533067,54.84487,38.117009
Lukhovitsy,Russia,MO,533543,54.965217,39.025394
Luga,Russia,Leningrad,533690,15.604341,-16.213962
Losino-Petrovskiy,Russia,MO,534015,55.872183,38.200983
Lomonosov,Russia,St.-Petersburg,534341,59.91074,29.776466
Lodeynoye Pole,Russia,Leningrad,534560,60.734978,33.548869
Lobnya,Russia,MO,534595,56.012269,37.474821
Livny,Russia,Orjol,534701,52.426549,37.608041
Liski,Russia,Voronezj,534838,50.987298,39.497099
Lipetsk,Russia,Lipetsk,535121,52.60882,39.59922
Likino-Dulevo,Russia,MO,535243,55.707786,38.957742
Likhobory,Russia,Moscow,535270,0.0,0.0
Lianozovo,Russia,Moscow,535330,0.0,0.0
L’govskiy,Russia,Kursk,535334,34.048408,-118.252957
Levoberezhnaya,Russia,MO,535451,56.76197,36.372696
Komendantsky aerodrom,Russia,St.-Petersburg,535729,60.001581,30.281391
Lermontov,Russia,Stavropol'skiy,535886,44.105344,42.973175
Leonovo,Russia,Moscow,535966,41.946556,25.079822
Leninskiye Gory,Russia,MO,536098,0.0,0.0
Leninsk,Russia,Volgograd,536156,48.693682,45.199228
Leninogorsk,Russia,Tatarstan,536162,54.599028,52.442667
Tsaritsyno,Russia,Moscow,536164,55.45797,65.070941
Leningradskaya,Russia,Krasnodarskiy,536200,46.320547,39.392886
Yubileyny,Russia,MO,536206,54.61426,55.457961
Lefortovo,Russia,Moscow,536398,0.0,0.0
Lebedyan’,Russia,Lipetsk,536518,53.020489,39.13135
Lazarevskoye,Russia,Krasnodarskiy,536625,60.654473,28.870407
Lakinsk,Russia,Vladimir,537107,56.018001,39.956525
Labinsk,Russia,Krasnodarskiy,537281,44.635387,40.724459
Dugulubgey,Russia,Kabardino-Balkariya,537345,43.660572,43.540021
Kuznetsk,Russia,Penza,537737,53.119335,46.601165
Kuz’minki,Russia,Moscow,537832,45.127702,1.057811
Kuvandyk,Russia,Orenburg,538138,51.478483,57.361168
Kuskovo,Russia,MO,538321,56.64201,85.23175
Kushva,Russia,Sverdlovsk,538340,58.282566,59.764682
Kushchëvskaya,Russia,Krasnodarskiy,538416,0.0,0.0
Kusa,Russia,Chelyabinsk,538442,56.897596,26.130303
Kur’yanovo,Russia,MO,538472,32.23624,35.096576
Kursk,Russia,Kursk,538560,51.730361,36.192647
Kurovskoye,Russia,MO,538601,55.579144,38.920866
Kurganinsk,Russia,Krasnodarskiy,538836,44.887641,40.591364
Kurchatov,Russia,Kursk,538908,50.7549,78.544826
Kurchaloy,Russia,Chechnya,538913,43.20463,46.088955
Kupchino,Russia,St.-Petersburg,539061,0.0,0.0
Kungur,Russia,Perm,539147,57.42881,56.944206
Kumertau,Russia,Bashkortostan,539283,52.756523,55.796976
Kulebaki,Russia,Nizjnij Novgorod,539555,55.429716,42.512483
Kukmor,Russia,Tatarstan,539689,56.186599,50.893981
Kudymkar,Russia,Perm,539817,59.014548,54.664183
Kudepsta,Russia,Krasnodarskiy,539907,0.0,0.0
Kubinka,Russia,MO,540030,55.575556,36.695209
Kstovo,Russia,Nizjnij Novgorod,540103,56.15067,44.206751
Krymsk,Russia,Krasnodarskiy,540251,44.934986,37.986196
Kropotkin,Russia,Krasnodarskiy,540761,45.434686,40.575994
Kronshtadt,Russia,St.-Petersburg,540771,59.988694,29.773627
Krasnyy Sulin,Russia,Rostov,541404,47.894709,40.05799
Biryulëvo Zapadnoye,Russia,MO,541406,-2.926199,133.602471
Krasnoye Selo,Russia,St.-Petersburg,542000,59.73306,30.087804
Krasnovishersk,Russia,Perm,542184,60.412821,57.083301
Krasnoufimsk,Russia,Sverdlovsk,542199,56.617744,57.770692
Krasnokamsk,Russia,Perm,542327,58.078357,55.736376
Krasnogvardeyskoye,Russia,Stavropol'skiy,542334,50.648389,38.400553
Krasnogorsk,Russia,MO,542374,55.831099,37.330192
Krasnodar,Russia,Krasnodarskiy,542420,45.03547,38.975313
Krasnoarmeyskaya,Russia,Krasnodarskiy,542461,47.449407,43.170562
Krasnoarmeysk,Russia,MO,542463,51.023605,45.695044
Krasnoarmeysk,Russia,Saratov,542464,51.023605,45.695044
Presnenskiy,Russia,MO,542634,0.0,0.0
Koz’modem’yansk,Russia,Mariy-El,543018,70.913267,136.449645
Kozhukhovo,Russia,MO,543254,58.38945,35.063348
Kozeyevo,Russia,Moscow,543344,0.0,0.0
Kozel’sk,Russia,Kaluga,543348,-15.802118,-47.889062
Kovylkino,Russia,Mordoviya,543436,54.039201,43.919056
Kovrov,Russia,Vladimir,543460,56.363628,41.31122
Kovdor,Russia,Murmansk,543508,67.562914,30.474025
Kotovsk,Russia,Tambov,543605,47.741955,29.535115
Kotovo,Russia,Volgograd,543633,50.322058,44.801319
Kotlas,Russia,Arkhangelskaya,543704,61.25297,46.633217
Kotel’nikovo,Russia,Volgograd,543728,53.56376,43.26184
Kotel’niki,Russia,MO,543731,55.65984,37.863199
Kotel’nich,Russia,Kirov,543737,49.193252,119.729249
Kostroma,Russia,Kostroma,543878,57.767961,40.926858
Kostomuksha,Russia,Republic of Karelia,543899,64.588014,30.598361
Kosaya Gora,Russia,Tula,544293,0.0,0.0
Koryazhma,Russia,Arkhangelskaya,544370,61.315335,47.159855
Korenovsk,Russia,Krasnodarskiy,544896,45.462742,39.448033
Konstantinovsk,Russia,Rostov,545277,47.577341,41.096694
Kondrovo,Russia,Kaluga,545575,54.80743,35.926647
Kondopoga,Russia,Republic of Karelia,545626,62.20475,34.272758
Konakovo,Russia,Tverskaya,545673,56.713217,36.779309
Kommunar,Russia,Leningrad,545788,59.621609,30.393483
Kolpino,Russia,St.-Petersburg,546105,59.749012,30.597607
Kolomyagi,Russia,St.-Petersburg,546225,0.0,0.0
Kolomna,Russia,MO,546230,55.103152,38.752917
Kolomenskoye,Russia,Moscow,546244,45.301655,34.919411
Kol’chugino,Russia,Vladimir,546521,52.563358,13.274558
Kokhma,Russia,Ivanovo,546672,56.932531,41.093208
Klintsy,Russia,Brjansk,547475,42.421817,18.566533
Klin,Russia,MO,547523,56.331693,36.728716
Klimovsk,Russia,MO,547560,61.285627,53.647901
Kizlyar,Russia,Dagestan,547840,43.84738,46.711685
Kizilyurt,Russia,Dagestan,547849,43.204637,46.866878
Kizel,Russia,Perm,547875,59.049425,57.653875
Kislovodsk,Russia,Stavropol'skiy,548114,43.905225,42.716796
Kirzhach,Russia,Vladimir,548278,56.161709,38.872052
Kirsanov,Russia,Tambov,548330,52.650646,42.728663
Kirovsk,Russia,Murmansk,548391,67.612056,33.668228
Kirovsk,Russia,Leningrad,548392,67.612056,33.668228
Kirovo-Chepetsk,Russia,Kirov,548395,58.556581,50.043932
Kirov,Russia,Kirov,548408,58.603591,49.668014
Kirov,Russia,Kaluga,548410,58.603591,49.668014
Kirishi,Russia,Leningrad,548442,59.449695,32.008707
Kireyevsk,Russia,Tula,548506,53.934944,37.928542
Kingisepp,Russia,Leningrad,548602,59.374028,28.611297
Kineshma,Russia,Ivanovo,548605,57.442544,42.168923
Kinel’-Cherkassy,Russia,Samara,548622,49.444433,32.059759
Kinel’,Russia,Samara,548625,53.221004,50.634394
Kimry,Russia,Tverskaya,548652,56.873338,37.355678
Kimovsk,Russia,Tula,548658,53.972149,38.533063
Khot'kovo,Russia,MO,549373,56.252147,37.978803
Khosta,Russia,Krasnodarskiy,549424,43.160106,-1.08848
Khoroshëvo-Mnevniki,Russia,MO,549479,0.0,0.0
Kholmskiy,Russia,Krasnodarskiy,549741,0.0,0.0
Khimki,Russia,Moscow,550280,55.88874,37.43039
Khasavyurt,Russia,Dagestan,550478,43.246265,46.590044
Kharabali,Russia,Astrakhan,550671,47.409315,47.252058
Khadyzhensk,Russia,Krasnodarskiy,550846,44.422804,39.537326
Kazan,Russia,Tatarstan,551487,55.796289,49.108795
Katav-Ivanovsk,Russia,Chelyabinsk,551794,54.752074,58.198443
Kastanayevo,Russia,MO,551835,0.0,0.0
Kaspiysk,Russia,Dagestan,551847,42.890833,47.635674
Kasimov,Russia,Rjazan,551891,54.937288,41.391368
Kashira,Russia,MO,551964,54.834589,38.15154
Kashin,Russia,Tverskaya,551986,57.358381,37.61344
Karachev,Russia,Brjansk,552920,53.121594,34.982796
Karachayevsk,Russia,Karachayevo-Cherkesiya,552924,43.773167,41.914313
Karabulak,Russia,Ingushetiya,552951,43.305594,44.909404
Karabanovo,Russia,Vladimir,552977,56.313269,38.703438
Kapotnya,Russia,Moscow,553034,0.0,0.0
Kantyshevo,Russia,Ingushetiya,553092,43.228066,44.648453
Kanevskaya,Russia,Krasnodarskiy,553152,46.084805,38.971944
Kandalaksha,Russia,Murmansk,553190,67.151252,32.412823
Kanash,Russia,Chuvashia,553216,55.506943,47.491764
Kamyzyak,Russia,Astrakhan,553248,46.110571,48.073235
Kamyshin,Russia,Volgograd,553287,50.083698,45.407367
Kamensk-Shakhtinskiy,Russia,Rostov,553399,48.320515,40.268923
Kaluga,Russia,Kaluga,553915,54.513845,36.261215
Kalininsk,Russia,Saratov,554199,51.499671,44.48548
Korolev,Russia,MO,554233,55.922212,37.854629
Kaliningrad,Russia,Kaliningrad,554234,54.70739,20.507307
Kalach-na-Donu,Russia,Volgograd,554397,48.681995,43.538234
Kalach,Russia,Voronezj,554410,50.424119,41.01624
Kachkanar,Russia,Sverdlovsk,554599,58.70511,59.483959
Kabanovo,Russia,MO,554679,57.656161,38.358036
Izobil’nyy,Russia,Stavropol'skiy,554770,49.193252,119.729249
Izmaylovo,Russia,MO,554787,53.037283,36.884835
Izhevsk,Russia,Udmurtiya,554840,56.852593,53.204843
Izberbash,Russia,Dagestan,554894,42.565141,47.871078
Ivanteyevka,Russia,MO,555111,55.971718,37.924338
Ivanovskoye,Russia,Moscow,555129,55.813238,37.29991
Ivanovo,Russia,Ivanovo,555312,57.000348,40.973921
Istra,Russia,MO,555746,55.914287,36.860284
Ishimbay,Russia,Bashkortostan,555980,53.454621,56.04395
Ipatovo,Russia,Stavropol'skiy,556230,45.717419,42.911147
Inza,Russia,Ulyanovsk,556283,53.857035,46.351649
Inozemtsevo,Russia,Stavropol'skiy,556320,44.097175,43.089507
Il’skiy,Russia,Krasnodarskiy,556951,0.0,0.0
Igra,Russia,Udmurtiya,557469,57.540193,53.086211
Gus’-Khrustal’nyy,Russia,Vladimir,557775,55.619422,40.65739
Gusev,Russia,Kaliningrad,557882,54.591841,22.201117
Gul’kevichi,Russia,Krasnodarskiy,558066,49.193252,119.729249
Gukovo,Russia,Rostov,558082,48.058442,39.940274
Gudermes,Russia,Chechnya,558118,43.35188,46.103535
Gubkin,Russia,Belgorod,558146,51.283644,37.534748
Gubakha,Russia,Perm,558209,58.837018,57.554575
Gryazovets,Russia,Vologda,558236,58.875793,40.248423
Gryazi,Russia,Lipetsk,558312,52.496186,39.95533
Groznyy,Russia,Chechnya,558418,43.317881,45.695358
Gribanovskiy,Russia,Voronezj,558799,51.45641,41.979971
Grazhdanka,Russia,St.-Petersburg,559029,47.778892,31.840776
Goryachiy Klyuch,Russia,Krasnodarskiy,559317,44.634246,39.136426
Goryachevodskiy,Russia,Stavropol'skiy,559320,44.023716,43.097332
Gorodishche,Russia,Volgograd,559654,53.272758,45.70267
Gorodets,Russia,Nizjnij Novgorod,559678,56.644822,43.472351
Gorelovo,Russia,St.-Petersburg,560142,59.768106,30.147281
Gol’yanovo,Russia,Moscow,560465,55.59781,27.51219
Golitsyno,Russia,MO,560756,55.615944,36.987117
Glazov,Russia,Udmurtiya,561347,58.14081,52.674235
Giaginskaya,Russia,Adygeya,561515,44.876208,40.059481
Georgiyevsk,Russia,Stavropol'skiy,561627,44.148599,43.473896
Gelendzhik,Russia,Krasnodarskiy,561667,44.561141,38.076809
Gay,Russia,Orenburg,561731,51.465019,58.443719
Gavrilov-Yam,Russia,Jaroslavl,561762,57.303309,39.849086
Gatchina,Russia,Leningrad,561887,59.568456,30.124473
Galich,Russia,Kostroma,562161,58.381199,42.34749
Gagarin,Russia,Smolensk,562237,55.584304,39.540982
Furmanov,Russia,Ivanovo,562309,57.252601,41.106189
Fryazino,Russia,MO,562319,55.957938,38.052339
Fryazevo,Russia,MO,562321,55.728525,38.468304
Frolovo,Russia,Volgograd,562389,49.765861,43.649292
Fili,Russia,MO,562820,38.103204,23.669054
Ezhva,Russia,Komi Republic,563379,61.796772,50.720983
Engel’s,Russia,Saratov,563464,51.487794,46.125498
Enem,Russia,Adygeya,563472,44.926403,38.910715
Elista,Russia,Kalmykiya,563514,46.307743,44.269759
Elektrougli,Russia,MO,563522,55.716859,38.219659
Elektrostal’,Russia,MO,563523,55.784445,38.444849
Elektrogorsk,Russia,MO,563524,55.883161,38.786209
Ekazhevo,Russia,Ingushetiya,563551,43.208389,44.819079
Dzerzhinskiy,Russia,MO,563705,55.630939,37.849616
Dzerzhinsk,Russia,Nizjnij Novgorod,563708,56.238377,43.461625
Dyurtyuli,Russia,Bashkortostan,563719,55.48529,54.873463
Dyat’kovo,Russia,Brjansk,563822,53.597306,34.339656
Dubovka,Russia,Volgograd,564654,49.055369,44.826957
Dubna,Russia,MO,564719,56.744002,37.173176
Dorogomilovo,Russia,MO,565197,0.0,0.0
Donskoye,Russia,Stavropol'skiy,565289,45.454757,41.975569
Donskoy,Russia,Tula,565290,53.96787,38.337222
Donetsk,Russia,Rostov,565348,48.015877,37.80285
Domodedovo,Russia,MO,565381,55.437102,37.768004
Dolgoprudnyy,Russia,MO,565614,49.193252,119.729249
Dobryanka,Russia,Perm,565778,58.468063,56.403986
Dmitrov,Russia,MO,565955,56.343942,37.520348
Divnoye,Russia,Stavropol'skiy,566155,45.911847,43.34285
Dinskaya,Russia,Krasnodarskiy,566181,45.21325,39.229132
Dimitrovgrad,Russia,Ulyanovsk,566199,43.018197,22.780198
Desnogorsk,Russia,Smolensk,566384,54.152366,33.287872
Derbent,Russia,Dagestan,566532,42.057669,48.288776
Zapadnoye Degunino,Russia,Moscow,566809,43.102221,74.33347
Dedovsk,Russia,MO,566854,55.859984,37.120669
Davydkovo,Russia,Moscow,566976,48.442428,22.620441
Davlekanovo,Russia,Bashkortostan,567006,54.222727,55.03127
Dankov,Russia,Lipetsk,567109,53.246197,39.134414
Danilov,Russia,Jaroslavl,567183,58.187861,40.174815
Dagestanskiye Ogni,Russia,Dagestan,567290,42.115189,48.193914
Dachnoye,Russia,St.-Petersburg,567311,42.942426,74.703279
Chusovoy,Russia,Perm,567434,58.297548,57.819318
Chudovo,Russia,Novgorod,567774,59.12119,31.670285
Chistopol’,Russia,Tatarstan,567990,55.372334,50.643575
Chishmy,Russia,Bashkortostan,568012,54.589331,55.380257
Chernyanka,Russia,Belgorod,568587,50.939107,37.806299
Chernyakhovsk,Russia,Kaliningrad,568595,54.630706,21.819503
Chernushka,Russia,Perm,568608,56.51601,56.076361
Chernogolovka,Russia,MO,568808,56.010005,38.379245
Cherkessk,Russia,Karachayevo-Cherkesiya,569154,44.226863,42.04677
Cherepovets,Russia,Vologda,569223,59.122612,37.903461
Cherëmushki,Russia,MO,569273,53.119475,25.738673
Chekhov,Russia,MO,569591,55.149851,37.466997
Chegem,Russia,Kabardino-Balkariya,569639,43.567114,43.586626
Cheboksary,Russia,Chuvashia,569696,56.146277,47.251079
Chaykovskiy,Russia,Perm,569742,56.778061,54.147759
Chapayevsk,Russia,Samara,569955,52.981709,49.710217
Buzuluk,Russia,Orenburg,570427,52.788116,52.262438
Buynaksk,Russia,Dagestan,570479,42.821749,47.115927
Buy,Russia,Kostroma,570508,14.848858,-3.735375
Buturlinovka,Russia,Voronezj,570563,50.835367,40.584825
Businovo,Russia,Moscow,570636,0.0,0.0
Buinsk,Russia,Tatarstan,571155,54.964153,48.290142
Buguruslan,Russia,Orenburg,571159,53.6523,52.432606
Bugul’ma,Russia,Tatarstan,571170,49.193252,119.729249
Budënnovsk,Russia,Stavropol'skiy,571306,44.781528,44.165024
Bryukhovetskaya,Russia,Krasnodarskiy,571420,45.801997,38.997286
Bryansk,Russia,Brjansk,571476,53.243562,34.363407
Bronnitsy,Russia,MO,571557,55.425471,38.264108
Brateyevo,Russia,Moscow,571741,0.0,0.0
Borovichi,Russia,Novgorod,572154,58.388219,33.914025
Borisoglebsk,Russia,Voronezj,572525,51.367725,42.074977
Bor,Russia,Nizjnij Novgorod,572665,53.891731,16.84343
Bol’shaya Setun’,Russia,MO,574675,55.709911,37.451752
Bologoye,Russia,Tverskaya,575349,57.885626,34.053776
Boksitogorsk,Russia,Leningrad,575410,59.473572,33.847675
Boguchar,Russia,Voronezj,575457,49.935512,40.559079
Bogorodskoye,Russia,MO,575505,57.82782,50.750484
Bogorodsk,Russia,Nizjnij Novgorod,575560,55.854522,38.441831
Bogoroditsk,Russia,Tula,575591,53.770694,38.131687
Bobrov,Russia,Voronezj,575948,51.097718,40.035604
Blagoveshchensk,Russia,Bashkortostan,576116,50.29064,127.527173
Blagodarnyy,Russia,Stavropol'skiy,576172,45.095649,43.440021
Biryulëvo,Russia,Moscow,576279,55.446355,36.620622
Birsk,Russia,Bashkortostan,576317,55.417531,55.530707
Bibirevo,Russia,Moscow,576432,56.652022,38.893836
Bezhetsk,Russia,Tverskaya,576566,57.781313,36.693188
Bezenchuk,Russia,Samara,576590,52.984393,49.433212
Beslan,Russia,North Ossetia,576697,43.19376,44.533792
Berezniki,Russia,Perm,577206,59.407922,56.804015
Beloretsk,Russia,Bashkortostan,577881,53.967621,58.410023
Belorechensk,Russia,Krasnodarskiy,577893,44.761141,39.87114
Beloozërskiy,Russia,MO,577901,47.110215,45.965347
Belgorod,Russia,Belgorod,578072,50.59566,36.587223
Belëv,Russia,Tula,578091,50.694829,25.974059
Belebey,Russia,Bashkortostan,578120,54.103441,54.111279
Belaya Kalitva,Russia,Rostov,578155,48.177644,40.802388
Belaya Glina,Russia,Krasnodarskiy,578169,46.073665,40.871324
Baymak,Russia,Bashkortostan,578534,52.591257,58.311199
Bavly,Russia,Tatarstan,578638,54.406333,53.245896
Bataysk,Russia,Rostov,578740,47.138333,39.744469
Barysh,Russia,Ulyanovsk,578931,53.653468,47.118029
Balezino,Russia,Udmurtiya,579432,57.976496,53.007402
Balashov,Russia,Saratov,579460,51.554601,43.146469
Balashikha,Russia,MO,579464,55.796339,37.938199
Balakovo,Russia,Saratov,579492,52.018424,47.819667
Novaya Balakhna,Russia,Nizjnij Novgorod,579514,56.504556,43.602005
Balabanovo,Russia,Kaluga,579529,55.172311,36.660543
Baksan,Russia,Kabardino-Balkariya,579574,43.681939,43.534613
Bakal,Russia,Chelyabinsk,579738,54.938064,58.809171
Bagayevskaya,Russia,Rostov,579771,47.312062,40.383485
Babushkin,Russia,Moscow,579870,51.715833,105.864363
Azov,Russia,Rostov,580054,47.112442,39.423581
Avtury,Russia,Chechnya,580218,43.16317,46.00313
Avtovo,Russia,St.-Petersburg,580222,0.0,0.0
Atkarsk,Russia,Saratov,580420,51.873632,45.000296
Astrakhan,Russia,Astrakhan,580497,46.347869,48.033574
Asha,Russia,Chelyabinsk,580660,54.990628,57.278469
Arzgir,Russia,Stavropol'skiy,580716,45.370145,44.227942
Arzamas,Russia,Nizjnij Novgorod,580724,55.386666,43.815687
Arsk,Russia,Tatarstan,580850,56.091311,49.876989
Armavir,Russia,Krasnodarskiy,580922,44.997655,41.129644
Arkhangel’sk,Russia,Arkhangelskaya,581049,46.329726,28.977342
Argun,Russia,Chechnya,581126,37.94801,40.169066
Ardon,Russia,North Ossetia,581179,43.175598,44.295621
Apsheronsk,Russia,Krasnodarskiy,581313,44.468327,39.736707
Aprelevka,Russia,MO,581321,55.545166,37.07322
Apatity,Russia,Murmansk,581357,67.568041,33.407115
Anna,Russia,Voronezj,581671,57.335429,27.028519
Andreyevskoye,Russia,MO,581928,55.943164,36.880154
Anapa,Russia,Krasnodarskiy,582182,44.894965,37.31617
Amin’yevo,Russia,Moscow,582266,0.0,0.0
Al’met’yevsk,Russia,Tatarstan,582432,54.901383,52.297113
Aleksin,Russia,Tula,582750,54.502429,37.066034
Alekseyevka,Russia,MO,582846,51.995855,70.952948
Alekseyevka,Russia,Belgorod,582956,51.995855,70.952948
Aleksandrovskoye,Russia,Stavropol'skiy,582993,44.403288,43.884148
Aleksandrovsk,Russia,Perm,583041,59.162925,57.584669
Aleksandrov,Russia,Vladimir,583350,56.397774,38.727621
Alatyr’,Russia,Chuvashia,583437,54.839816,46.572195
Levoberezhnyy,Russia,MO,583589,46.957033,39.631425
Aksay,Russia,Rostov,583673,51.165499,53.021901
Akhtyrskiy,Russia,Krasnodarskiy,583785,44.850353,38.299825
Akhtubinsk,Russia,Astrakhan,583798,48.284884,46.164413
Agryz,Russia,Tatarstan,583983,56.526318,52.995266
Afipskiy,Russia,Krasnodarskiy,584126,44.903348,38.841123
Adler,Russia,Krasnodarskiy,584243,43.443579,39.910369
Achkhoy-Martan,Russia,Chechnya,584298,43.190914,45.285663
Abinsk,Russia,Krasnodarskiy,584441,44.866256,38.151163
Abdulino,Russia,Orenburg,584471,53.677839,53.647263
Vasil’yevo,Russia,Tatarstan,611182,49.193252,119.729249
Ryl’sk,Russia,Kursk,695019,0.0,0.0
Neftekumsk,Russia,Stavropol'skiy,797781,44.750586,44.994088
Alagir,Russia,North Ossetia,802078,43.041711,44.219875
Persianovka,Russia,Rostov,802714,47.52678,39.417158
Annino,Russia,MO,819552,52.646423,33.859443
Dagomys,Russia,Krasnodarskiy,823674,0.0,0.0
Pavlovo,Russia,Nizjnij Novgorod,827329,55.964629,43.06457
Belidzhi,Russia,Dagestan,828055,41.89089,48.413382
Lesnoy,Russia,Sverdlovsk,829005,58.635513,59.79863
Trëkhgornyy,Russia,Chelyabinsk,830844,0.0,0.0
Mirnyy,Russia,Arkhangelskaya,831129,0.0,0.0
Znamensk,Russia,Astrakhan,831130,48.586634,45.736744
Zarechnyy,Russia,Penza,831165,0.0,0.0
Kochubeyevskoye,Russia,Stavropol'skiy,841006,44.690728,41.824221
Vnukovo,Russia,MO,857689,55.608475,37.2924
Moskovskiy,Russia,Moscow,857690,55.74975,37.542581
Usinsk,Russia,Komi Republic,863061,65.994144,57.55701
Obukhovo,Russia,St.-Petersburg,873901,55.392459,28.243554
Staryy Malgobek,Russia,Ingushetiya,874045,43.509645,44.590188
Zavodoukovsk,Russia,Tjumen,1485357,56.508808,66.539174
Zarinsk,Russia,Altai Krai,1485439,53.706332,84.931488
Zarechnyy,Russia,Sverdlovsk,1485445,0.0,0.0
Yuzhnyy,Russia,Altai Krai,1485627,0.0,0.0
Yuzhnoural’sk,Russia,Chelyabinsk,1485634,49.193252,119.729249
Yurga,Russia,Kemerovo,1485724,55.713557,84.933869
Yeniseysk,Russia,Krasnoyarskiy,1485997,58.453069,92.173769
Yemanzhelinsk,Russia,Chelyabinsk,1486039,54.752147,61.317223
Yekaterinburg,Russia,Sverdlovsk,1486209,56.838011,60.597465
Yashkino,Russia,Kemerovo,1486298,55.871971,85.43759
Yarovoye,Russia,Altai Krai,1486340,52.923446,78.569601
Yalutorovsk,Russia,Tjumen,1486468,56.654689,66.312206
Vorkuta,Russia,Komi Republic,1486910,67.49741,64.061091
Vorgashor,Russia,Komi Republic,1486913,67.582684,63.797022
Verkhnyaya Salda,Russia,Sverdlovsk,1487277,58.046644,60.555999
Verkhnyaya Pyshma,Russia,Sverdlovsk,1487281,56.966958,60.579194
Verkhniy Ufaley,Russia,Chelyabinsk,1487394,56.048721,60.23195
Uzhur,Russia,Krasnoyarskiy,1487882,55.320155,89.844006
Zelenogorsk,Russia,Krasnoyarskiy,1488253,56.113246,94.589006
Uray,Russia,Khanty-Mansiyskiy Avtonomnyy Okrug,1488429,60.129632,64.803944
Tyumen,Russia,Tjumen,1488754,57.153033,65.534328
Turinsk,Russia,Sverdlovsk,1488933,58.039442,63.698144
Troitsk,Russia,Chelyabinsk,1489246,55.484842,37.305561
Topki,Russia,Kemerovo,1489394,55.276508,85.615223
Tomsk,Russia,Tomsk,1489425,56.48464,84.947649
Toguchin,Russia,Novosibirsk,1489508,55.238013,84.402865
Tobol’sk,Russia,Tjumen,1489530,42.52114,72.25033
Tayshet,Russia,Irkutsk,1489870,55.940502,98.002982
Tayga,Russia,Kemerovo,1489907,56.065138,85.631024
Tavda,Russia,Sverdlovsk,1489962,58.041871,65.272595
Tatarsk,Russia,Novosibirsk,1490003,55.214532,75.97409
Tashtagol,Russia,Kemerovo,1490042,52.763912,87.848309
Tarko-Sale,Russia,Yamalo-Nenetskiy Avtonomnyy Okrug,1490085,64.911819,77.761055
Tara,Russia,Omsk,1490140,56.901838,74.371981
Talnakh,Russia,Krasnoyarskiy,1490256,0.0,0.0
Tal’menka,Russia,Altai Krai,1490266,49.193252,119.729249
Talitsa,Russia,Sverdlovsk,1490277,57.012293,63.732155
Talitsa,Russia,Sverdlovsk,1490281,57.012293,63.732155
Sysert’,Russia,Sverdlovsk,1490402,56.502281,60.810025
Suzun,Russia,Novosibirsk,1490551,53.789135,82.316124
Surgut,Russia,Khanty-Mansiyskiy Avtonomnyy Okrug,1490624,61.254035,73.396221
Sukhoy Log,Russia,Sverdlovsk,1490686,56.905431,62.035542
Strezhevoy,Russia,Tomsk,1490796,60.732862,77.604002
Sredneuralsk,Russia,Sverdlovsk,1491159,56.991837,60.477136
Sovetskiy,Russia,Khanty-Mansiyskiy Avtonomnyy Okrug,1491230,56.296444,44.034885
Sosnovoborsk,Russia,Krasnoyarskiy,1491291,56.120211,93.335434
Slavgorod,Russia,Altai Krai,1491706,52.999375,78.64594
Shushenskoye,Russia,Krasnoyarskiy,1491953,53.329036,91.950573
Shumikha,Russia,Kurgan,1491999,55.228726,63.28571
Sharypovo,Russia,Krasnoyarskiy,1492401,55.53909,89.18016
Shadrinsk,Russia,Kurgan,1492517,56.087042,63.629747
Serov,Russia,Sverdlovsk,1492663,59.605391,60.573588
Sayanogorsk,Russia,Khakasiya,1492893,53.100762,91.412195
Salekhard,Russia,Yamalo-Nenetskiy Avtonomnyy Okrug,1493197,66.529844,66.614399
Rubtsovsk,Russia,Altai Krai,1493467,51.501207,81.2078
Rezh,Russia,Sverdlovsk,1493648,57.373772,61.391639
Reftinskiy,Russia,Sverdlovsk,1493687,57.091297,61.67442
Promyshlennaya,Russia,Kemerovo,1494091,54.916511,85.637654
Prokop’yevsk,Russia,Kemerovo,1494114,45.799597,17.153618
Poykovskiy,Russia,Khanty-Mansiyskiy Avtonomnyy Okrug,1494276,60.996562,71.902458
Polysayevo,Russia,Kemerovo,1494456,54.605443,86.280901
Polevskoy,Russia,Sverdlovsk,1494573,56.446499,60.177072
Plast,Russia,Chelyabinsk,1494907,54.363281,60.808399
Osinniki,Russia,Kemerovo,1495974,53.598748,87.337069
Omsk,Russia,Omsk,1496153,54.989342,73.368212
Ob’,Russia,Novosibirsk,1496421,54.994594,82.693758
Nyagan,Russia,Khanty-Mansiyskiy Avtonomnyy Okrug,1496476,62.145759,65.433654
Noyabrsk,Russia,Yamalo-Nenetskiy Avtonomnyy Okrug,1496503,63.201801,75.450938
Novyy Urengoy,Russia,Yamalo-Nenetskiy Avtonomnyy Okrug,1496511,66.083963,76.680974
Novosilikatnyy,Russia,Altai Krai,1496739,0.0,0.0
Novosibirsk,Russia,Novosibirsk,1496747,55.030199,82.92043
Novokuznetsk,Russia,Kemerovo,1496990,53.757547,87.136044
Novoaltaysk,Russia,Altai Krai,1497173,53.412021,83.93107
Norilsk,Russia,Krasnoyarskiy,1497337,69.343985,88.210384
Nizhnyaya Salda,Russia,Sverdlovsk,1497393,58.074855,60.702577
Nizhnevartovsk,Russia,Khanty-Mansiyskiy Avtonomnyy Okrug,1497543,60.939716,76.569628
Nizhneudinsk,Russia,Irkutsk,1497549,54.901233,99.026387
Nev’yansk,Russia,Sverdlovsk,1497795,34.989675,63.129565
Nefteyugansk,Russia,Khanty-Mansiyskiy Avtonomnyy Okrug,1497917,61.088212,72.616331
Nazarovo,Russia,Krasnoyarskiy,1497951,56.012345,90.417688
Nadym,Russia,Yamalo-Nenetskiy Avtonomnyy Okrug,1498087,65.535924,72.531341
Myski,Russia,Kemerovo,1498129,53.712509,87.805747
Minusinsk,Russia,Krasnoyarskiy,1498693,53.710564,91.687268
Miass,Russia,Chelyabinsk,1498894,55.046414,60.108081
Mezhdurechensk,Russia,Kemerovo,1498920,53.686596,88.070372
Megion,Russia,Khanty-Mansiyskiy Avtonomnyy Okrug,1499053,61.03289,76.102612
Mayma,Russia,Altai Republic,1499163,52.003718,85.89618
Mariinsk,Russia,Kemerovo,1499350,56.206952,87.742263
Linëvo,Russia,Novosibirsk,1500532,58.006931,33.68588
Lesosibirsk,Russia,Krasnoyarskiy,1500607,58.221728,92.503657
Leninsk-Kuznetsky,Russia,Kemerovo,1500665,54.663609,86.162243
Labytnangi,Russia,Yamalo-Nenetskiy Avtonomnyy Okrug,1500933,66.660595,66.383963
Kyzyl,Russia,Tyva,1500973,51.719086,94.437757
Kyshtym,Russia,Chelyabinsk,1500997,55.707877,60.538949
Kuybyshev,Russia,Novosibirsk,1501141,53.195538,50.101783
Kurtamysh,Russia,Kurgan,1501255,54.910151,64.42799
Kurgan,Russia,Kurgan,1501321,55.441004,65.341118
Kupino,Russia,Novosibirsk,1501365,54.366046,77.297254
Kulunda,Russia,Altai Krai,1501460,52.566112,78.936976
Krasnoyarsk,Russia,Krasnoyarskiy,1502026,56.010563,92.852572
Krasnoural’sk,Russia,Sverdlovsk,1502060,58.35369,60.055961
Krasnotur’insk,Russia,Sverdlovsk,1502061,59.763761,60.193493
Krasnoobsk,Russia,Novosibirsk,1502091,54.921256,82.991208
Korkino,Russia,Chelyabinsk,1502536,54.892493,61.393049
Kopeysk,Russia,Chelyabinsk,1502603,55.116732,61.61797
Yugorsk,Russia,Khanty-Mansiyskiy Avtonomnyy Okrug,1502725,61.314917,63.331964
Kolpashevo,Russia,Tomsk,1502862,58.311384,82.902679
Kodinsk,Russia,Krasnoyarskiy,1503037,58.603408,99.179703
Kochenëvo,Russia,Novosibirsk,1503082,0.0,0.0
Kiselëvsk,Russia,Kemerovo,1503277,54.006025,86.636679
Kirovgrad,Russia,Sverdlovsk,1503335,57.432415,60.062896
Khanty-Mansiysk,Russia,Khanty-Mansiyskiy Avtonomnyy Okrug,1503772,61.00318,69.018902
Kemerovo,Russia,Kemerovo,1503901,55.354727,86.088374
Kedrovka,Russia,Kemerovo,1503940,58.176758,59.369217
Kayyerkan,Russia,Krasnoyarskiy,1504139,0.0,0.0
Kataysk,Russia,Kurgan,1504212,56.283235,62.58365
Kasli,Russia,Chelyabinsk,1504251,55.893652,60.765918
Kartaly,Russia,Chelyabinsk,1504317,53.053681,60.647753
Karpinsk,Russia,Sverdlovsk,1504343,59.766534,60.001227
Karasuk,Russia,Novosibirsk,1504489,53.734294,78.042389
Karabash,Russia,Chelyabinsk,1504636,55.490789,60.203042
Kansk,Russia,Krasnoyarskiy,1504682,56.205045,95.705055
Kamyshlov,Russia,Sverdlovsk,1504769,56.846578,62.712288
Kamensk-Ural’skiy,Russia,Sverdlovsk,1504826,56.414927,61.918708
Kamen’-na-Obi,Russia,Altai Krai,1504871,53.791486,81.354558
Kaltan,Russia,Kemerovo,1504972,53.521083,87.27716
Kalachinsk,Russia,Omsk,1505074,55.052608,74.581782
Ivdel’,Russia,Sverdlovsk,1505260,60.697349,60.41729
Iskitim,Russia,Novosibirsk,1505429,54.642582,83.306382
Ishim,Russia,Tjumen,1505453,56.11055,69.479639
Irbit,Russia,Sverdlovsk,1505526,57.683819,63.057664
Ilanskiy,Russia,Krasnoyarskiy,1505933,56.238552,96.065297
Gur’yevsk,Russia,Kemerovo,1506073,52.506509,-8.517583
Gornyak,Russia,Altai Krai,1506260,50.997775,81.464198
Gorno-Altaysk,Russia,Altai Republic,1506271,51.958182,85.960373
Dudinka,Russia,Krasnoyarskiy,1507116,69.403081,86.190854
Divnogorsk,Russia,Krasnoyarskiy,1507379,55.957721,92.380148
Degtyarsk,Russia,Sverdlovsk,1507488,56.698463,60.086674
Chunskiy,Russia,Irkutsk,1507636,56.085967,99.665539
Chernogorsk,Russia,Khakasiya,1508054,53.827013,91.306005
Cherepanovo,Russia,Novosibirsk,1508161,54.228417,83.372201
Chelyabinsk,Russia,Chelyabinsk,1508291,55.159897,61.402554
Chebarkul’,Russia,Chelyabinsk,1508350,54.977785,60.37012
Borovskiy,Russia,Tjumen,1508879,43.861135,18.925042
Borodino,Russia,Krasnoyarskiy,1508943,55.905442,94.902177
Bolotnoye,Russia,Novosibirsk,1509819,55.672001,84.385447
Bogotol,Russia,Krasnoyarskiy,1509852,56.210117,89.531258
Bogdanovich,Russia,Sverdlovsk,1509888,56.776502,62.046295
Biysk,Russia,Altai Krai,1510018,52.539297,85.21382
Beryozovsky,Russia,Sverdlovsk,1510203,55.669361,86.274514
Berëzovskiy,Russia,Kemerovo,1510205,46.275592,40.443726
Berëzovka,Russia,Krasnoyarskiy,1510255,53.719388,25.498257
Berdsk,Russia,Novosibirsk,1510350,54.758288,83.107135
Beloyarskiy,Russia,Khanty-Mansiyskiy Avtonomnyy Okrug,1510450,63.716043,66.667588
Belovo,Russia,Kemerovo,1510469,54.422114,86.303692
Barnaul,Russia,Altai Krai,1510853,53.346785,83.776856
Barabinsk,Russia,Novosibirsk,1510916,55.350412,78.341923
Asino,Russia,Tomsk,1511309,-28.863483,153.045795
Asbest,Russia,Sverdlovsk,1511330,57.005274,61.458114
Artëmovskiy,Russia,Sverdlovsk,1511368,0.0,0.0
Aramil,Russia,Sverdlovsk,1511466,56.694538,60.834315
Anzhero-Sudzhensk,Russia,Kemerovo,1511494,56.083175,86.018216
Aleysk,Russia,Altai Krai,1511783,52.492167,82.779448
Alapayevsk,Russia,Sverdlovsk,1511954,57.853038,61.702672
Akademgorodok,Russia,Novosibirsk,1512086,49.193252,119.729249
Achinsk,Russia,Krasnoyarskiy,1512165,56.269496,90.495231
Abaza,Russia,Khakasiya,1512205,14.098294,6.41575
Abakan,Russia,Khakasiya,1512236,53.721152,91.442387
Snezhinsk,Russia,Chelyabinsk,1536289,56.085209,60.732536
Ozersk,Russia,Chelyabinsk,1538634,55.763184,60.707599
Zheleznogorsk,Russia,Krasnoyarskiy,1538635,52.337971,35.351743
Novoural’sk,Russia,Sverdlovsk,1538636,57.247235,60.095604
Seversk,Russia,Tomsk,1538637,56.603185,84.880913
Gubkinskiy,Russia,Yamalo-Nenetskiy Avtonomnyy Okrug,1539209,64.432625,76.500494
Raduzhny,Russia,Khanty-Mansiyskiy Avtonomnyy Okrug,1540356,62.134265,77.458439
Muravlenko,Russia,Yamalo-Nenetskiy Avtonomnyy Okrug,1540711,63.795285,74.494448
Lyantor,Russia,Khanty-Mansiyskiy Avtonomnyy Okrug,1541359,61.620663,72.155352
Zima,Russia,Irkutsk,2012484,53.92072,102.049065
Zheleznogorsk-Ilimskiy,Russia,Irkutsk,2012557,56.584843,104.114283
Zeya,Russia,Amur,2012593,53.734033,127.265889
Yakutsk,Russia,Sakha,2013159,62.028082,129.732609
Vyazemskiy,Russia,Khabarovsk Krai,2013229,47.535352,134.755297
Vrangel’,Russia,Primorskiy,2013258,56.461397,-132.367988
Vladivostok,Russia,Primorskiy,2013348,43.115536,131.885485
Vikhorevka,Russia,Irkutsk,2013399,56.120718,101.170396
Ust’-Kut,Russia,Irkutsk,2013923,56.792838,105.775699
Ust’-Ilimsk,Russia,Irkutsk,2013952,57.943039,102.741523
Ussuriysk,Russia,Primorskiy,2014006,43.797273,131.95178
Usol’ye-Sibirskoye,Russia,Irkutsk,2014022,52.756648,103.638769
Ulan-Ude,Russia,Respublika Buryatiya,2014407,51.834464,107.584574
Udachny,Russia,Sakha,2014624,66.406966,112.306389
Tynda,Russia,Amur,2014718,55.154656,124.729236
Tulun,Russia,Irkutsk,2014927,54.55712,100.578038
Trudovoye,Russia,Primorskiy,2015051,45.237507,33.759587
Fokino,Russia,Primorskiy,2015310,53.455436,34.415923
Svobodnyy,Russia,Amur,2015833,0.0,0.0
Spassk-Dal’niy,Russia,Primorskiy,2016187,49.193252,119.729249
Slyudyanka,Russia,Irkutsk,2016422,51.656501,103.718845
Shimanovsk,Russia,Amur,2016701,51.999509,127.676123
Shelekhov,Russia,Irkutsk,2016764,52.210209,104.097395
Severobaykal’sk,Russia,Respublika Buryatiya,2016910,49.193252,119.729249
Raychikhinsk,Russia,Amur,2017487,49.794114,129.411255
Petrovsk-Zabaykal’skiy,Russia,Transbaikal Territory,2017945,49.193252,119.729249
Partizansk,Russia,Primorskiy,2018116,43.119813,133.123246
Neryungri,Russia,Sakha,2019309,56.659948,124.720315
Nerchinsk,Russia,Transbaikal Territory,2019326,51.95948,116.585415
Nakhodka,Russia,Primorskiy,2019528,42.824037,132.892811
Mirny,Russia,Sakha,2019951,62.541028,113.978692
Luchegorsk,Russia,Primorskiy,2020689,46.445063,134.296599
Lesozavodsk,Russia,Primorskiy,2020812,45.477955,133.418594
Lensk,Russia,Sakha,2020838,60.713731,114.911844
Kyakhta,Russia,Respublika Buryatiya,2021066,50.355214,106.449903
Krasnokamensk,Russia,Transbaikal Territory,2021618,50.09372,118.033256
Komsomolsk-on-Amur,Russia,Khabarovsk Krai,2021851,50.549923,137.007948
Khabarovsk,Russia,Khabarovsk Krai,2022890,48.480223,135.071917
Kavalerovo,Russia,Primorskiy,2023058,44.267653,135.057283
Irkutsk,Russia,Irkutsk,2023469,52.287054,104.281047
Gusinoozyorsk,Russia,Respublika Buryatiya,2023782,51.285526,106.529323
Dal’nerechensk,Russia,Primorskiy,2025159,49.193252,119.729249
Chita,Russia,Transbaikal Territory,2025339,52.033973,113.499432
Cheremkhovo,Russia,Irkutsk,2025527,53.136911,103.090096
Borzya,Russia,Transbaikal Territory,2026126,50.387629,116.523485
Bol’shoy Kamen’,Russia,Primorskiy,2026303,51.593347,7.653655
Bodaybo,Russia,Irkutsk,2026583,57.852118,114.198968
Blagoveshchensk,Russia,Amur,2026609,50.29064,127.527173
Birobidzhan,Russia,Jewish Autonomous Oblast,2026643,48.792947,132.920245
Bikin,Russia,Khabarovsk Krai,2026696,46.818592,134.255034
Belogorsk,Russia,Amur,2026895,50.921287,128.473917
Baykal’sk,Russia,Irkutsk,2026979,40.201872,28.95466
Aykhal,Russia,Sakha,2027296,65.942105,111.50219
Artëm,Russia,Primorskiy,2027456,43.354804,132.18563
Arsen’yev,Russia,Primorskiy,2027468,49.193252,119.729249
Angarsk,Russia,Irkutsk,2027667,52.544358,103.88824
Amursk,Russia,Khabarovsk Krai,2027749,50.226797,136.910607
Aldan,Russia,Sakha,2027968,58.609451,125.381673
Dal'negorsk,Russia,Primorskiy,2051471,49.193252,119.729249
Bratsk,Russia,Irkutsk,2051523,56.151362,101.63408
Sayansk,Russia,Irkutsk,2055166,54.11081,102.180139
Khabarovsk Vtoroy,Russia,Khabarovsk Krai,2056752,47.878346,135.485438
Markova,Russia,Irkutsk,2056881,46.740749,39.171442
Vilyuchinsk,Russia,Kamtsjatka,2118647,52.906857,158.418296
Yuzhno-Sakhalinsk,Russia,Sakhalin,2119441,46.959155,142.738023
Yelizovo,Russia,Kamtsjatka,2119538,53.183053,158.388355
Vanino,Russia,Khabarovsk Krai,2119932,13.67878,-8.326466
Sovetskaya Gavan’,Russia,Khabarovsk Krai,2121052,48.96644,140.285128
Poronaysk,Russia,Sakhalin,2121909,49.22038,143.08956
Petropavlovsk-Kamchatsky,Russia,Kamtsjatka,2122104,53.024075,158.643566
Okha,Russia,Sakhalin,2122614,53.588969,142.949163
Nikolayevsk-on-Amure,Russia,Khabarovsk Krai,2122850,0.0,0.0
Nevel’sk,Russia,Sakhalin,2122894,46.652828,141.863126
Magadan,Russia,Magadan,2123628,59.568164,150.808541
Korsakov,Russia,Sakhalin,2124286,46.63498,142.78257
Kholmsk,Russia,Sakhalin,2124615,47.040905,142.041622
Baltiysk,Russia,Kaliningrad,2609906,54.644072,19.892177
Isakogorka,Russia,Arkhangelskaya,6315399,64.447201,40.619832
Krasnoznamensk,Russia,MO,6417459,55.600506,37.042489
Chertanovo Yuzhnoye,Russia,Moscow,6418146,46.621971,31.099774
Zagor’ye,Russia,Moscow,6418201,15.24556,97.850367
Orekhovo-Borisovo,Russia,Moscow,6418220,49.193252,119.729249
Metrogorodok,Russia,Moscow,6418787,0.0,0.0
Kogalym,Russia,Khanty-Mansiyskiy Avtonomnyy Okrug,6695754,62.264069,74.482761
Pyt-Yakh,Russia,Khanty-Mansiyskiy Avtonomnyy Okrug,6696686,60.758589,72.836526
Langepas,Russia,Khanty-Mansiyskiy Avtonomnyy Okrug,6696767,61.253701,75.180725
Lesnoy,Russia,Sverdlovsk,6853140,58.635513,59.79863
Zarya,Russia,MO,7117880,42.872639,74.125088
Raduzhnyy,Russia,Vladimir,7117885,0.0,0.0
Nizhnesortymskiy,Russia,Khanty-Mansiyskiy Avtonomnyy Okrug,7287775,62.442807,71.765204
Pokachi,Russia,Khanty-Mansiyskiy Avtonomnyy Okrug,7289676,61.742253,75.59412
Izluchinsk,Russia,Khanty-Mansiyskiy Avtonomnyy Okrug,7290697,60.953021,76.891171
Kurortnyy,Russia,Leningrad,8436165,44.913326,35.192013
Chernaya Rechka,Russia,Leningrad,8504946,57.408109,83.793287
Untolovo,Russia,Leningrad,8504947,0.0,0.0
Petrogradka,Russia,St.-Petersburg,8504948,0.0,0.0
Vasyl'evsky Ostrov,Russia,St.-Petersburg,8504949,59.957687,30.938553
Parnas,Russia,Leningrad,8504950,60.160526,21.727453
Kalininskiy,Russia,Leningrad,8504951,49.564477,41.845601
Krasnogvargeisky,Russia,St.-Petersburg,8504952,39.762947,67.2729
Admiralteisky,Russia,St.-Petersburg,8504953,0.0,0.0
Krestovskiy ostrov,Russia,Leningrad,8504955,0.0,0.0
Akademicheskoe,Russia,Leningrad,8504958,0.0,0.0
Finlyandskiy,Russia,Leningrad,8504959,0.0,0.0
Centralniy,Russia,St.-Petersburg,8504960,0.0,0.0
Svetlanovskiy,Russia,Leningrad,8504964,0.0,0.0
Sampsonievskiy,Russia,Leningrad,8504965,0.0,0.0
Vostochnoe Degunino,Russia,MO,8505053,55.865823,37.573088
